[{"id":"Ceremony-Venues","name":"Ceremony Venues","icon":"ribbon","geojson":{"type":"FeatureCollection","crs":{"type":"name","properties":{"name":"urn:ogc:def:crs:OGC:1.3:CRS84"}},"features":[{"type":"Feature","properties":{"Name":"Grand Inna Bali Beach","Description":"Cultural Night, Baby Turtle Release Ceremony, Bali Beach Party","timestamp":null,"begin":null,"end":null,"altitudeMode":null,"tessellate":-1,"extrude":0,"visibility":-1,"drawOrder":null,"icon":null},"geometry":{"type":"Point","coordinates":[115.2635774,-8.6782835,0.0]}},{"type":"Feature","properties":{"Name":"Institut Seni Indonesia (ISI) Denpasar","Description":"WSDC Photo Session and Opening Ceremony at Citta Kelangen Auditorium","timestamp":null,"begin":null,"end":null,"altitudeMode":null,"tessellate":-1,"extrude":0,"visibility":-1,"drawOrder":null,"icon":null},"geometry":{"type":"Point","coordinates":[115.2326286,-8.6535743,0.0]}},{"type":"Feature","properties":{"Name":"Sanur Paradise Plaza Hotel","Description":"Closing Ceremony, Presentation of Awards to: Best New, EFL, ESL Teams, Top 5 EFL \u0026 ESL, Speakers Top 10 Speakers, World Semifinalists, World Grand Finalists, World Champions","timestamp":null,"begin":null,"end":null,"altitudeMode":null,"tessellate":-1,"extrude":0,"visibility":-1,"drawOrder":null,"icon":null},"geometry":{"type":"Point","coordinates":[115.2600509,-8.6760268,0.0]}},{"type":"Feature","properties":{"Name":"Canangsari Restaurant","Description":"Break Night Party \u0026 Breaking Announcement","timestamp":null,"begin":null,"end":null,"altitudeMode":null,"tessellate":-1,"extrude":0,"visibility":-1,"drawOrder":null,"icon":null},"geometry":{"type":"Point","coordinates":[115.258034,-8.678297,0.0]}}]}},{"id":"Competition-Venues","name":"Competition Venues","icon":"people","geojson":{"type":"FeatureCollection","crs":{"type":"name","properties":{"name":"urn:ogc:def:crs:OGC:1.3:CRS84"}},"features":[{"type":"Feature","properties":{"Name":"SMA Negeri 1 Denpasar","Description":"Preliminary Round 1 - 4","timestamp":null,"begin":null,"end":null,"altitudeMode":null,"tessellate":-1,"extrude":0,"visibility":-1,"drawOrder":null,"icon":null},"geometry":{"type":"Point","coordinates":[115.2252623,-8.6539161,0.0]}},{"type":"Feature","properties":{"Name":"SMA Negeri 7 Denpasar","Description":"Preliminary Round 1 - 4","timestamp":null,"begin":null,"end":null,"altitudeMode":null,"tessellate":-1,"extrude":0,"visibility":-1,"drawOrder":null,"icon":null},"geometry":{"type":"Point","coordinates":[115.2252526,-8.6515218,0.0]}},{"type":"Feature","properties":{"Name":"SMA Negeri 4 Denpasar","Description":"Preliminary Round 5 - 8","timestamp":null,"begin":null,"end":null,"altitudeMode":null,"tessellate":-1,"extrude":0,"visibility":-1,"drawOrder":null,"icon":null},"geometry":{"type":"Point","coordinates":[115.199257,-8.664303,0.0]}},{"type":"Feature","properties":{"Name":"Politeknik Negeri Bali","Description":"Preliminary Round 5 and Preliminary Round 6","timestamp":null,"begin":null,"end":null,"altitudeMode":null,"tessellate":-1,"extrude":0,"visibility":-1,"drawOrder":null,"icon":null},"geometry":{"type":"Point","coordinates":[115.1615675,-8.7990608,0.0]}},{"type":"Feature","properties":{"Name":"SMK Pariwisata Harapan Denpasar","Description":"Preliminary Round 7 - 8","timestamp":null,"begin":null,"end":null,"altitudeMode":null,"tessellate":-1,"extrude":0,"visibility":-1,"drawOrder":null,"icon":null},"geometry":{"type":"Point","coordinates":[115.2153527,-8.683901,0.0]}},{"type":"Feature","properties":{"Name":"Sekolah Tinggi Ilmu Kesehatan Bali","Description":"Partial Double Octofinals \u0026 Octofinals","timestamp":null,"begin":null,"end":null,"altitudeMode":null,"tessellate":-1,"extrude":0,"visibility":-1,"drawOrder":null,"icon":null},"geometry":{"type":"Point","coordinates":[115.2416032,-8.6921593,0.0]}},{"type":"Feature","properties":{"Name":"Grand Inna Bali Beach","Description":"Grand Final","timestamp":null,"begin":null,"end":null,"altitudeMode":null,"tessellate":-1,"extrude":0,"visibility":-1,"drawOrder":null,"icon":null},"geometry":{"type":"Point","coordinates":[115.2635774,-8.6782835,0.0]}},{"type":"Feature","properties":{"Name":"Universitas Udayana","Description":"Quarterfinals and Semifinals","timestamp":null,"begin":null,"end":null,"altitudeMode":null,"tessellate":-1,"extrude":0,"visibility":-1,"drawOrder":null,"icon":null},"geometry":{"type":"Point","coordinates":[115.2186873,-8.6716802,0.0]}}]}},{"id":"Delegates-Accomodation","name":"Delegates Accomodation","icon":"moon","geojson":{"type":"FeatureCollection","crs":{"type":"name","properties":{"name":"urn:ogc:def:crs:OGC:1.3:CRS84"}},"features":[{"type":"Feature","properties":{"Name":"Sanur Paradise Plaza Hotel","Description":"Jl. Hang Tuah No.46, Sanur Kaja, Denpasar Sel., Kota Denpasar","timestamp":null,"begin":null,"end":null,"altitudeMode":null,"tessellate":-1,"extrude":0,"visibility":-1,"drawOrder":null,"icon":null},"geometry":{"type":"Point","coordinates":[115.2600509,-8.6760268,0.0]}}]}},{"id":"Educational-Tour","name":"Educational Tour","icon":"bus","geojson":{"type":"FeatureCollection","crs":{"type":"name","properties":{"name":"urn:ogc:def:crs:OGC:1.3:CRS84"}},"features":[{"type":"Feature","properties":{"Name":"Pura Uluwatu","Description":"Uluwatu Tour and Kecak Dance Performance","timestamp":null,"begin":null,"end":null,"altitudeMode":null,"tessellate":-1,"extrude":0,"visibility":-1,"drawOrder":null,"icon":null},"geometry":{"type":"Point","coordinates":[115.0849069,-8.8291432,0.0]}},{"type":"Feature","properties":{"Name":"SMK Negeri 3 Denpasar","Description":"Barong Dance Performance","timestamp":null,"begin":null,"end":null,"altitudeMode":null,"tessellate":-1,"extrude":0,"visibility":-1,"drawOrder":null,"icon":null},"geometry":{"type":"Point","coordinates":[115.2530345,-8.7003637,0.0]}}]}}]